[{"category": "drugs", "location_type": "Force", "location": {"latitude": "52.632534", "street": {"id": 1738358, "name": "On or near Market Street"}, "longitude": "-1.133232"}, "context": "", "outcome_status": {"category": "Court result unavailable", "date": "2024-10"}, "persistent_id": "d7f3d9107fb44d3ba6c34cbb46a37673ec6ef25d28de185299ab7ad6ae9d8f06", "id": 116200843, "location_subtype": "", "month": "2024-01"}, {"category": "drugs", "location_type": "Force", "location": {"latitude": "52.625500", "street": {"id": 1738603, "name": "On or near Lancaster Road"}, "longitude": "-1.127802"}, "context": "", "outcome_status": {"category": "Court result unavailable", "date": "2024-10"}, "persistent_id": "d49b5beccf36e020d280d052c611543ef5837f97ae465ddfc9d2bf0f4967b9c5", "id": 116204806, "location_subtype": "", "month": "2024-01"}, {"category": "drugs", "location_type": "Force", "location": {"latitude": "52.639223", "street": {"id": 1738429, "name": "On or near Police Station"}, "longitude": "-1.132080"}, "context": "", "outcome_status": {"category": "Formal action is not in the public interest", "date": "2024-02"}, "persistent_id": "28535ab42ad660ecb22708c2544643b16a5250b58623a1fb12a8c3b925a02a5f", "id": 116205465, "location_subtype": "", "month": "2024-01"}, {"category": "drugs", "location_type": "Force", "location": {"latitude": "52.630693", "street": {"id": 1738552, "name": "On or near Wellington Street"}, "longitude": "-1.129885"}, "context": "", "outcome_status": {"category": "Local resolution", "date": "2024-02"}, "persistent_id": "89384a46684fa71e61e0e562fb8ab539586aff352647c20d3f8ee26d406a0efc", "id": 116205775, "location_subtype": "", "month": "2024-01"}, {"category": "drugs", "location_type": "Force", "location": {"latitude": "52.626599", "street": {"id": 1739469, "name": "On or near Evington Place"}, "longitude": "-1.111189"}, "context": "", "outcome_status": {"category": "Court result unavailable", "date": "2024-08"}, "persistent_id": "bd213f1d7f09ac384ecd0aa8bb1ea1bce7014ca400773088f6b06f50743dc787", "id": 116206555, "location_subtype": "", "month": "2024-01"}, {"category": "drugs", "location_type": "Force", "location": {"latitude": "52.616105", "street": {"id": 1738350, "name": "On or near Euston Street"}, "longitude": "-1.132611"}, "context": "", "outcome_status": {"category": "Local resolution", "date": "2024-02"}, "persistent_id": "28be6110881f698c0b021516c99c7cd8a1b60f56f781d9f814668fb52086e4bc", "id": 116206991, "location_subtype": "", "month": "2024-01"}, {"category": "drugs", "location_type": "Force", "location": {"latitude": "52.636171", "street": {"id": 1738824, "name": "On or near Morledge Street"}, "longitude": "-1.125329"}, "context": "", "outcome_status": {"category": "Local resolution", "date": "2024-02"}, "persistent_id": "55755b29f67cf638406384b7a4b01316f7e3e4c7e3d3a2a259764b0be4532ff5", "id": 116208534, "location_subtype": "", "month": "2024-01"}, {"category": "drugs", "location_type": "Force", "location": {"latitude": "52.626576", "street": {"id": 1737515, "name": "On or near Paton Street"}, "longitude": "-1.148404"}, "context": "", "outcome_status": {"category": "Status update unavailable", "date": "2024-05"}, "persistent_id": "a09305862ac78fcd922542bd64ca4b1140310898c791c175d6561c1b5548c969", "id": 116207250, "location_subtype": "", "month": "2024-01"}, {"category": "drugs", "location_type": "Force", "location": {"latitude": "52.637740", "street": {"id": 1738170, "name": "On or near Church Gate"}, "longitude": "-1.134563"}, "context": "", "outcome_status": {"category": "Local resolution", "date": "2024-01"}, "persistent_id": "ce6351874d3e085d182589e5cfed9e32f7b611c1aa118da2d81a2c126b4639b3", "id": 116204680, "location_subtype": "", "month": "2024-01"}, {"category": "drugs", "location_type": "Force", "location": {"latitude": "52.625999", "street": {"id": 1739014, "name": "On or near Salisbury Road"}, "longitude": "-1.121173"}, "context": "", "outcome_status": {"category": "Local resolution", "date": "2024-01"}, "persistent_id": "5e9be05e68978c58c8b9745ae5bb1b1c348c5e0570671ce360152385f5edabf9", "id": 116206006, "location_subtype": "", "month": "2024-01"}, {"category": "drugs", "location_type": "Force", "location": {"latitude": "52.629483", "street": {"id": 1738118, "name": "On or near Grange Lane"}, "longitude": "-1.136425"}, "context": "", "outcome_status": {"category": "Investigation complete; no suspect identified", "date": "2024-02"}, "persistent_id": "6bb84b566a56ec0c1487d473ba1ef4dab2ac7a2026deac6f64a89611110e519e", "id": 116206258, "location_subtype": "", "month": "2024-01"}, {"category": "drugs", "location_type": "Force", "location": {"latitude": "52.637697", "street": {"id": 1738064, "name": "On or near Causeway Lane"}, "longitude": "-1.137297"}, "context": "", "outcome_status": {"category": "Status update unavailable", "date": "2024-05"}, "persistent_id": "514cf5fc903756ecd805ae2a261570f8042e45fb25feb62a7712f921a11bd837", "id": 116205320, "location_subtype": "", "month": "2024-01"}, {"category": "drugs", "location_type": "Force", "location": {"latitude": "52.627308", "street": {"id": 1737263, "name": "On or near Browning Street"}, "longitude": "-1.152778"}, "context": "", "outcome_status": {"category": "Local resolution", "date": "2024-02"}, "persistent_id": "b910def33c2039178df4d6345746ab00077d2e9c2ea21cdb5f79ed65a38982c1", "id": 116204804, "location_subtype": "", "month": "2024-01"}, {"category": "drugs", "location_type": "Force", "location": {"latitude": "52.628542", "street": {"id": 1739089, "name": "On or near Gotham Street"}, "longitude": "-1.119837"}, "context": "", "outcome_status": {"category": "Awaiting court outcome", "date": "2025-10"}, "persistent_id": "13e0955e5fe9e177b1406a445b8314bc74722193062f39970e4028a0cfa97537", "id": 116203713, "location_subtype": "", "month": "2024-01"}, {"category": "drugs", "location_type": "Force", "location": {"latitude": "52.630693", "street": {"id": 1738552, "name": "On or near Wellington Street"}, "longitude": "-1.129885"}, "context": "", "outcome_status": {"category": "Court result unavailable", "date": "2025-07"}, "persistent_id": "fc800c7c8f94e93ece8e28b6c49c49e53a147e407afdfebc29e2d7bd1ea528ff", "id": 116203844, "location_subtype": "", "month": "2024-01"}, {"category": "drugs", "location_type": "Force", "location": {"latitude": "52.635488", "street": {"id": 1738121, "name": "On or near Carts Lane"}, "longitude": "-1.136395"}, "context": "", "outcome_status": {"category": "Unable to prosecute suspect", "date": "2024-12"}, "persistent_id": "e3bf60093f8cffdc022ca630c233b54a255742e41596de7e3bdb8aa6bfa0e17d", "id": 116203666, "location_subtype": "", "month": "2024-01"}, {"category": "drugs", "location_type": "Force", "location": {"latitude": "52.616105", "street": {"id": 1738350, "name": "On or near Euston Street"}, "longitude": "-1.132611"}, "context": "", "outcome_status": {"category": "Local resolution", "date": "2024-03"}, "persistent_id": "3877bbcdc57c439afe7dd3ea9b3b2086c2d95de9ea9404218fdf8e80d0b36e97", "id": 116203435, "location_subtype": "", "month": "2024-01"}, {"category": "drugs", "location_type": "Force", "location": {"latitude": "52.624788", "street": {"id": 1737410, "name": "On or near Noel Street"}, "longitude": "-1.149857"}, "context": "", "outcome_status": {"category": "Court result unavailable", "date": "2024-08"}, "persistent_id": "948e8474431f4f1d2671fa5acd2819b68513108704fa60912cb7a17a7d3b12d3", "id": 116203263, "location_subtype": "", "month": "2024-01"}, {"category": "drugs", "location_type": "Force", "location": {"latitude": "52.628256", "street": {"id": 1737513, "name": "On or near Briton Street"}, "longitude": "-1.148327"}, "context": "", "outcome_status": {"category": "Court result unavailable", "date": "2024-09"}, "persistent_id": "da91fce84097ab8b2d11b169da8efbb572da5e47c7c0bcbf93ea02c9101eca9f", "id": 116203225, "location_subtype": "", "month": "2024-01"}, {"category": "drugs", "location_type": "Force", "location": {"latitude": "52.616105", "street": {"id": 1738350, "name": "On or near Euston Street"}, "longitude": "-1.132611"}, "context": "", "outcome_status": {"category": "Unable to prosecute suspect", "date": "2025-02"}, "persistent_id": "1121e4bb82e99a376a0efcf21e346079adf75d2222488999bb1892e1173cfabc", "id": 116200830, "location_subtype": "", "month": "2024-01"}, {"category": "drugs", "location_type": "Force", "location": {"latitude": "52.623681", "street": {"id": 1737804, "name": "On or near Lineker Road"}, "longitude": "-1.140941"}, "context": "", "outcome_status": {"category": "Investigation complete; no suspect identified", "date": "2024-01"}, "persistent_id": "88d534f89803794fe4345be289e61926eebc83114deb1fbbd51b274aadfb173e", "id": 116202849, "location_subtype": "", "month": "2024-01"}, {"category": "drugs", "location_type": "Force", "location": {"latitude": "52.631302", "street": {"id": 1738955, "name": "On or near Lincoln Street"}, "longitude": "-1.120978"}, "context": "", "outcome_status": {"category": "Court result unavailable", "date": "2025-02"}, "persistent_id": "23ca54612953b6ef4455a61a43cd5b13d8c7e687a5142914a76f40596f6bad4e", "id": 116208451, "location_subtype": "", "month": "2024-01"}, {"category": "drugs", "location_type": "Force", "location": {"latitude": "52.637769", "street": {"id": 1737426, "name": "On or near Vernon Street"}, "longitude": "-1.149724"}, "context": "", "outcome_status": {"category": "Unable to prosecute suspect", "date": "2025-01"}, "persistent_id": "827cfc26c425c62e74ee0e6385e3515701de7e44fda447d1a68b85043ca4e1d2", "id": 116208427, "location_subtype": "", "month": "2024-01"}, {"category": "drugs", "location_type": "Force", "location": {"latitude": "52.625259", "street": {"id": 1737613, "name": "On or near Supermarket"}, "longitude": "-1.146539"}, "context": "", "outcome_status": {"category": "Status update unavailable", "date": "2024-05"}, "persistent_id": "f94cd3dc2d8673d4e2356c9505e2807790e99ce60e63c6e18f7c1d5598910ca9", "id": 116208289, "location_subtype": "", "month": "2024-01"}, {"category": "drugs", "location_type": "Force", "location": {"latitude": "52.632955", "street": {"id": 1737814, "name": "On or near Castle Street"}, "longitude": "-1.140434"}, "context": "", "outcome_status": {"category": "Status update unavailable", "date": "2024-05"}, "persistent_id": "019a7f368e862917f56c1d67f69e62bee48b4da4bf0187c32c4217c3bd8224aa", "id": 116208505, "location_subtype": "", "month": "2024-01"}, {"category": "drugs", "location_type": "Force", "location": {"latitude": "52.632805", "street": {"id": 1738842, "name": "On or near Campbell Street"}, "longitude": "-1.124819"}, "context": "", "outcome_status": {"category": "Status update unavailable", "date": "2024-05"}, "persistent_id": "a7a5c0397e2d557211fd90d46891675e18166520c53777847ffce9bc5e71f0eb", "id": 116207705, "location_subtype": "", "month": "2024-01"}, {"category": "drugs", "location_type": "Force", "location": {"latitude": "52.631624", "street": {"id": 1738751, "name": "On or near Station Street"}, "longitude": "-1.125641"}, "context": "", "outcome_status": {"category": "Status update unavailable", "date": "2024-05"}, "persistent_id": "4b3c96c25404b9fa83b4666da7bda7acb339acf05ddebaa257ef19b7424e8f51", "id": 116207694, "location_subtype": "", "month": "2024-01"}, {"category": "drugs", "location_type": "Force", "location": {"latitude": "52.636859", "street": {"id": 1739258, "name": "On or near Cecil Road"}, "longitude": "-1.115163"}, "context": "", "outcome_status": {"category": "Local resolution", "date": "2024-03"}, "persistent_id": "872e9cf0e5e25c7c390278d2a6d555bfa27be43bd16acfb853af527df9e35796", "id": 116207230, "location_subtype": "", "month": "2024-01"}, {"category": "drugs", "location_type": "Force", "location": {"latitude": "52.627299", "street": {"id": 1737468, "name": "On or near Norman Street"}, "longitude": "-1.148966"}, "context": "", "outcome_status": {"category": "Local resolution", "date": "2024-02"}, "persistent_id": "3c909d447d5dc7a511e623ecf27ab36dbc2732bead27bffcc23432ba9ef1bb65", "id": 116207597, "location_subtype": "", "month": "2024-01"}, {"category": "drugs", "location_type": "Force", "location": {"latitude": "52.625583", "street": {"id": 1739502, "name": "On or near Draper Street"}, "longitude": "-1.109968"}, "context": "", "outcome_status": {"category": "Investigation complete; no suspect identified", "date": "2024-03"}, "persistent_id": "0e2e27a8189fe8547d44395bb63578fac2df20cc6c7e706406faa7c3e430c72a", "id": 116206440, "location_subtype": "", "month": "2024-01"}, {"category": "drugs", "location_type": "Force", "location": {"latitude": "52.623681", "street": {"id": 1737804, "name": "On or near Lineker Road"}, "longitude": "-1.140941"}, "context": "", "outcome_status": {"category": "Investigation complete; no suspect identified", "date": "2024-01"}, "persistent_id": "801a583b39ee1da54ea2f82c5da5db14a912a17bfb99675fb3016a9190acf048", "id": 116206358, "location_subtype": "", "month": "2024-01"}, {"category": "drugs", "location_type": "Force", "location": {"latitude": "52.632171", "street": {"id": 1738533, "name": "On or near Stamford Street"}, "longitude": "-1.130358"}, "context": "", "outcome_status": {"category": "Local resolution", "date": "2024-01"}, "persistent_id": "ff262156c838d451a1f4b6298a16ffab9538f8f741674648f8ca93351a2f865a", "id": 116200787, "location_subtype": "", "month": "2024-01"}, {"category": "drugs", "location_type": "Force", "location": {"latitude": "52.636041", "street": {"id": 1738351, "name": "On or near East Gates"}, "longitude": "-1.133444"}, "context": "", "outcome_status": {"category": "Offender given a caution", "date": "2024-01"}, "persistent_id": "be9a28e793c32438aa7f550ed2df7c8f8c6d49275b97990229cbd87fbe8223f3", "id": 116200802, "location_subtype": "", "month": "2024-01"}, {"category": "drugs", "location_type": "Force", "location": {"latitude": "52.631985", "street": {"id": 1738367, "name": "On or near Welford Place"}, "longitude": "-1.133154"}, "context": "", "outcome_status": {"category": "Local resolution", "date": "2024-01"}, "persistent_id": "da72a2e861ee66e79d99e1979debe7686a7814a3cf2df7a9a540706c2340e8b1", "id": 116200818, "location_subtype": "", "month": "2024-01"}, {"category": "drugs", "location_type": "Force", "location": {"latitude": "52.639764", "street": {"id": 1738451, "name": "On or near Abbey Street"}, "longitude": "-1.132277"}, "context": "", "outcome_status": {"category": "Offender given a caution", "date": "2024-01"}, "persistent_id": "788508e2d80df23b9a965cb74bd0ccdc2e8a18d67394e3429eb187b9283e9558", "id": 116200820, "location_subtype": "", "month": "2024-01"}, {"category": "drugs", "location_type": "Force", "location": {"latitude": "52.632901", "street": {"id": 1738395, "name": "On or near Nightclub"}, "longitude": "-1.131836"}, "context": "", "outcome_status": {"category": "Local resolution", "date": "2024-01"}, "persistent_id": "ad056c1e1d783727fad7e87ee63ea3d686233738df683f08139c54484cf38e46", "id": 116200845, "location_subtype": "", "month": "2024-01"}, {"category": "drugs", "location_type": "Force", "location": {"latitude": "52.631193", "street": {"id": 1738645, "name": "On or near Calais Hill"}, "longitude": "-1.128220"}, "context": "", "outcome_status": {"category": "Local resolution", "date": "2024-01"}, "persistent_id": "d5feb37a77a9355945a949702c7c64abf6c469713ba7ae97ea4afa8d92397882", "id": 116200891, "location_subtype": "", "month": "2024-01"}, {"category": "drugs", "location_type": "Force", "location": {"latitude": "52.631767", "street": {"id": 1738612, "name": "On or near Dover Street"}, "longitude": "-1.129155"}, "context": "", "outcome_status": {"category": "Court result unavailable", "date": "2024-07"}, "persistent_id": "6e78853f506118320c0d318b553f3cd2a74c9f6b934ff27bdc6933fbe803940d", "id": 116201001, "location_subtype": "", "month": "2024-01"}, {"category": "drugs", "location_type": "Force", "location": {"latitude": "52.634585", "street": {"id": 1739206, "name": "On or near Taurus Close"}, "longitude": "-1.116450"}, "context": "", "outcome_status": {"category": "Investigation complete; no suspect identified", "date": "2024-01"}, "persistent_id": "2374a38c71fb1c1bbbce90908405969eaa2ba0daa9e7a9062d4e7a8d0533c6f7", "id": 116201325, "location_subtype": "", "month": "2024-01"}, {"category": "drugs", "location_type": "Force", "location": {"latitude": "52.635555", "street": {"id": 1738528, "name": "On or near Yeoman Lane"}, "longitude": "-1.129626"}, "context": "", "outcome_status": {"category": "Court result unavailable", "date": "2024-07"}, "persistent_id": "d390bf614e95901ac3ab651337176b9755aa808638d64659817c7b932f519a7d", "id": 116201497, "location_subtype": "", "month": "2024-01"}, {"category": "drugs", "location_type": "Force", "location": {"latitude": "52.626044", "street": {"id": 1739135, "name": "On or near Abingdon Road"}, "longitude": "-1.115086"}, "context": "", "outcome_status": {"category": "Local resolution", "date": "2024-01"}, "persistent_id": "26aabcaf7e68d98ab1612c16fb277c44e2106221bc3545edbfa0ba7c54868c5a", "id": 116201903, "location_subtype": "", "month": "2024-01"}, {"category": "drugs", "location_type": "Force", "location": {"latitude": "52.626044", "street": {"id": 1739135, "name": "On or near Abingdon Road"}, "longitude": "-1.115086"}, "context": "", "outcome_status": {"category": "Local resolution", "date": "2024-01"}, "persistent_id": "eab3225e72507b9273fc2e635645d0106823b08343597eb6321029d7e2cbce19", "id": 116201933, "location_subtype": "", "month": "2024-01"}, {"category": "drugs", "location_type": "Force", "location": {"latitude": "52.616105", "street": {"id": 1738350, "name": "On or near Euston Street"}, "longitude": "-1.132611"}, "context": "", "outcome_status": {"category": "Court result unavailable", "date": "2024-07"}, "persistent_id": "9913b00a8ec4fd6784dab3eb0dd95d7d6cd595b43bc7ba379c942e888fc90b24", "id": 116202032, "location_subtype": "", "month": "2024-01"}, {"category": "drugs", "location_type": "Force", "location": {"latitude": "52.625780", "street": {"id": 1739073, "name": "On or near Parking Area"}, "longitude": "-1.119567"}, "context": "", "outcome_status": {"category": "Local resolution", "date": "2024-01"}, "persistent_id": "97475ba45e9390bb61282b4ba0cc082beca0951400f15d9deb9b00e10d114cef", "id": 116202271, "location_subtype": "", "month": "2024-01"}, {"category": "drugs", "location_type": "Force", "location": {"latitude": "52.625780", "street": {"id": 1739073, "name": "On or near Parking Area"}, "longitude": "-1.119567"}, "context": "", "outcome_status": {"category": "Local resolution", "date": "2024-01"}, "persistent_id": "a50b47685fda0a04bc7e1d92ca822833f08c8cf203d6050a131ca1bf31beb170", "id": 116202457, "location_subtype": "", "month": "2024-01"}, {"category": "drugs", "location_type": "Force", "location": {"latitude": "52.628111", "street": {"id": 1737188, "name": "On or near Barclay Street"}, "longitude": "-1.154417"}, "context": "", "outcome_status": {"category": "Investigation complete; no suspect identified", "date": "2024-01"}, "persistent_id": "39223ad211947b8bbac533fc0bda2455ca14e0c5a4ba4ecb6c51f0c1792d5e72", "id": 116203945, "location_subtype": "", "month": "2024-01"}, {"category": "drugs", "location_type": "Force", "location": {"latitude": "52.623221", "street": {"id": 1737287, "name": "On or near Ivy Road"}, "longitude": "-1.152030"}, "context": "", "outcome_status": {"category": "Court result unavailable", "date": "2024-07"}, "persistent_id": "74b361a226f5bfd656050c769a8902280c1d2a45f433dee120c6e846a38519ea", "id": 116204568, "location_subtype": "", "month": "2024-01"}, {"category": "drugs", "location_type": "Force", "location": {"latitude": "52.630574", "street": {"id": 1738432, "name": "On or near King Street"}, "longitude": "-1.131985"}, "context": "", "outcome_status": {"category": "Local resolution", "date": "2024-01"}, "persistent_id": "d7afeb40d25a3042277b2ff433d9ca72a769c6b7f6c4943c7c003b89a7949603", "id": 116203872, "location_subtype": "", "month": "2024-01"}, {"category": "drugs", "location_type": "Force", "location": {"latitude": "52.639223", "street": {"id": 1738429, "name": "On or near Police Station"}, "longitude": "-1.132080"}, "context": "", "outcome_status": {"category": "Court result unavailable", "date": "2024-07"}, "persistent_id": "2bf939d0922e3e0efb3009bd3830dbccf90cd05b50eefa6b8eacd6831a7b6f92", "id": 116205101, "location_subtype": "", "month": "2024-01"}, {"category": "drugs", "location_type": "Force", "location": {"latitude": "52.635647", "street": {"id": 1738106, "name": "On or near Shires Lane"}, "longitude": "-1.137293"}, "context": "", "outcome_status": {"category": "Investigation complete; no suspect identified", "date": "2024-01"}, "persistent_id": "7ce7c84d47d2ed96c1311b7652d5fa1ce9ca7987e07818702f16b211d0fcdf97", "id": 116204644, "location_subtype": "", "month": "2024-01"}, {"category": "drugs", "location_type": "Force", "location": {"latitude": "52.627015", "street": {"id": 1739376, "name": "On or near Cedar Road"}, "longitude": "-1.112702"}, "context": "", "outcome_status": {"category": "Local resolution", "date": "2024-01"}, "persistent_id": "1f933c9fcae0400bb88859d32adb7672292f853fa7178ea119664313284364cb", "id": 116205505, "location_subtype": "", "month": "2024-01"}, {"category": "drugs", "location_type": "Force", "location": {"latitude": "52.618158", "street": {"id": 1738119, "name": "On or near Putney Road West"}, "longitude": "-1.135525"}, "context": "", "outcome_status": {"category": "Local resolution", "date": "2024-01"}, "persistent_id": "7060cc4f4f16f4e186e808b2fa3fe41599a1ae42f5c18fcd22161a8f6fd812ac", "id": 116205486, "location_subtype": "", "month": "2024-01"}, {"category": "drugs", "location_type": "Force", "location": {"latitude": "52.633879", "street": {"id": 1738375, "name": "On or near Horsefair Street"}, "longitude": "-1.132821"}, "context": "", "outcome_status": {"category": "Local resolution", "date": "2024-01"}, "persistent_id": "2dd03a32b3c79cfbed341df461fb0d225a32112473494c6c24a3f51d999e2616", "id": 116205700, "location_subtype": "", "month": "2024-01"}, {"category": "drugs", "location_type": "Force", "location": {"latitude": "52.637697", "street": {"id": 1738064, "name": "On or near Causeway Lane"}, "longitude": "-1.137297"}, "context": "", "outcome_status": {"category": "Local resolution", "date": "2024-01"}, "persistent_id": "1433cc7a455c25518bd56796ee029a803dc55c8d9f442135650789ef7f5c8f0c", "id": 116205759, "location_subtype": "", "month": "2024-01"}, {"category": "drugs", "location_type": "Force", "location": {"latitude": "52.616105", "street": {"id": 1738350, "name": "On or near Euston Street"}, "longitude": "-1.132611"}, "context": "", "outcome_status": {"category": "Local resolution", "date": "2024-01"}, "persistent_id": "82fafdc5e070d27d10c9a5dfa908c65000e668471e508512cbda22f6cd4dcf3f", "id": 116206172, "location_subtype": "", "month": "2024-01"}, {"category": "drugs", "location_type": "Force", "location": {"latitude": "52.627895", "street": {"id": 1737587, "name": "On or near Supermarket"}, "longitude": "-1.146886"}, "context": "", "outcome_status": {"category": "Unable to prosecute suspect", "date": "2024-01"}, "persistent_id": "0693c564d2c881ed990fa7215824145734ef08ed201ee97ed5949243208939f5", "id": 116206580, "location_subtype": "", "month": "2024-01"}, {"category": "drugs", "location_type": "Force", "location": {"latitude": "52.626898", "street": {"id": 1739308, "name": "On or near Onslow Street"}, "longitude": "-1.113960"}, "context": "", "outcome_status": {"category": "Local resolution", "date": "2024-01"}, "persistent_id": "a91211e3660fd0a81dd2d959ce8e7f8f2bacb14d3e8f9e1711ce0cc30d166492", "id": 116206855, "location_subtype": "", "month": "2024-01"}, {"category": "drugs", "location_type": "Force", "location": {"latitude": "52.638882", "street": {"id": 1738334, "name": "On or near Sandacre Street"}, "longitude": "-1.133417"}, "context": "", "outcome_status": {"category": "Local resolution", "date": "2024-01"}, "persistent_id": "e11151eab931c0f10acf84a8ba047341d1491fce7b78bcb6122ef637186cfdf0", "id": 116207277, "location_subtype": "", "month": "2024-01"}, {"category": "drugs", "location_type": "Force", "location": {"latitude": "52.621217", "street": {"id": 1737965, "name": "On or near Pavilion Close"}, "longitude": "-1.138404"}, "context": "", "outcome_status": {"category": "Local resolution", "date": "2024-01"}, "persistent_id": "b22c1d6031bdcb507c7de9cfbbb4be845a4b6c5241d9a28b4b940ef0b99d5d67", "id": 116207405, "location_subtype": "", "month": "2024-01"}, {"category": "drugs", "location_type": "Force", "location": {"latitude": "52.621217", "street": {"id": 1737965, "name": "On or near Pavilion Close"}, "longitude": "-1.138404"}, "context": "", "outcome_status": {"category": "Local resolution", "date": "2024-01"}, "persistent_id": "4307e48f5741ae95025dee707c7d0407d52b5c84d4563a99e1294d8ce5e46504", "id": 116207413, "location_subtype": "", "month": "2024-01"}, {"category": "drugs", "location_type": "Force", "location": {"latitude": "52.616105", "street": {"id": 1738350, "name": "On or near Euston Street"}, "longitude": "-1.132611"}, "context": "", "outcome_status": {"category": "Court result unavailable", "date": "2024-07"}, "persistent_id": "40df815fb4181333241e777c9f08f955c97266e6a08f4976fecc248e020936b0", "id": 116207696, "location_subtype": "", "month": "2024-01"}, {"category": "drugs", "location_type": "Force", "location": {"latitude": "52.616105", "street": {"id": 1738350, "name": "On or near Euston Street"}, "longitude": "-1.132611"}, "context": "", "outcome_status": {"category": "Local resolution", "date": "2024-01"}, "persistent_id": "9410a9266242688c6e672d2e6a2c59cd275b37e0b4b2bc829e1b54228be4ff55", "id": 116208008, "location_subtype": "", "month": "2024-01"}, {"category": "drugs", "location_type": "Force", "location": {"latitude": "52.628111", "street": {"id": 1737188, "name": "On or near Barclay Street"}, "longitude": "-1.154417"}, "context": "", "outcome_status": {"category": "Investigation complete; no suspect identified", "date": "2024-01"}, "persistent_id": "7fe7e5834bf865cf765aea13712bf29be960e8b586beb5333ff200460f8decbd", "id": 116208131, "location_subtype": "", "month": "2024-01"}, {"category": "drugs", "location_type": "Force", "location": {"latitude": "52.618023", "street": {"id": 1738421, "name": "On or near Putney Road"}, "longitude": "-1.129457"}, "context": "", "outcome_status": {"category": "Local resolution", "date": "2024-01"}, "persistent_id": "13d70eb950e5169ed999189ce58cb8047cc44f986c5ffd2bae104122e4a18b8c", "id": 116202936, "location_subtype": "", "month": "2024-01"}, {"category": "drugs", "location_type": "Force", "location": {"latitude": "52.631813", "street": {"id": 1738223, "name": "On or near Newarke Street"}, "longitude": "-1.135537"}, "context": "", "outcome_status": {"category": "Court result unavailable", "date": "2025-08"}, "persistent_id": "44977b8c1282901626ca1ffbd812fd8f5037201e11cbaf6a6b1578c7ecf15ad9", "id": 116204496, "location_subtype": "", "month": "2024-01"}, {"category": "drugs", "location_type": "Force", "location": {"latitude": "52.627299", "street": {"id": 1737468, "name": "On or near Norman Street"}, "longitude": "-1.148966"}, "context": "", "outcome_status": {"category": "Court result unavailable", "date": "2025-08"}, "persistent_id": "63ae7e39792ca44595186a1093145307c967f10a88f350a467bf001f8bfb1437", "id": 116201219, "location_subtype": "", "month": "2024-01"}, {"category": "drugs", "location_type": "Force", "location": {"latitude": "52.626782", "street": {"id": 1738090, "name": "On or near Hospital"}, "longitude": "-1.135961"}, "context": "", "outcome_status": {"category": "Court result unavailable", "date": "2025-02"}, "persistent_id": "8fa764dcafcb0509f8bbfdfcaf3833ef97ec15d6b97ef177f45eb354602762f0", "id": 116205526, "location_subtype": "", "month": "2024-01"}, {"category": "drugs", "location_type": "Force", "location": {"latitude": "52.634169", "street": {"id": 1738654, "name": "On or near Colton Street"}, "longitude": "-1.128191"}, "context": "", "outcome_status": {"category": "Further action is not in the public interest", "date": "2024-08"}, "persistent_id": "c787bb9328f913db51d229a1170b25388bf9ff3ed737c3e6b8d0da9c00ec7f44", "id": 116203518, "location_subtype": "", "month": "2024-01"}, {"category": "drugs", "location_type": "Force", "location": {"latitude": "52.632901", "street": {"id": 1738395, "name": "On or near Nightclub"}, "longitude": "-1.131836"}, "context": "", "outcome_status": {"category": "Court result unavailable", "date": "2025-02"}, "persistent_id": "d72aec1e21d642852d6ad4f5423a3de2ff60674b648675a08b666b0e2b115771", "id": 116206853, "location_subtype": "", "month": "2024-01"}, {"category": "drugs", "location_type": "Force", "location": {"latitude": "52.625500", "street": {"id": 1738603, "name": "On or near Lancaster Road"}, "longitude": "-1.127802"}, "context": "", "outcome_status": {"category": "Action to be taken by another organisation", "date": "2024-08"}, "persistent_id": "0dc2f8d6fbf2f43f94fda2a08b9b30db8bac72a9cf0f118bf75c8f109e81cf3b", "id": 116207939, "location_subtype": "", "month": "2024-01"}, {"category": "drugs", "location_type": "Force", "location": {"latitude": "52.616105", "street": {"id": 1738350, "name": "On or near Euston Street"}, "longitude": "-1.132611"}, "context": "", "outcome_status": {"category": "Court result unavailable", "date": "2024-09"}, "persistent_id": "64c8f788d4664d5a99d5c4f69b97f9ca53a3fa2b3f2fa0c8d63eff98812a45a5", "id": 116204335, "location_subtype": "", "month": "2024-01"}, {"category": "drugs", "location_type": "Force", "location": {"latitude": "52.631302", "street": {"id": 1738955, "name": "On or near Lincoln Street"}, "longitude": "-1.120978"}, "context": "", "outcome_status": {"category": "Court result unavailable", "date": "2024-09"}, "persistent_id": "b428e94793ddd3efcd375572368dc5764f32c372d8372be05407933025c0e7da", "id": 116204954, "location_subtype": "", "month": "2024-01"}]