[{"category": "anti-social-behaviour", "location_type": "Force", "location": {"latitude": "52.630004", "street": {"id": 1738814, "name": "On or near Regent Street"}, "longitude": "-1.125348"}, "context": "", "outcome_status": null, "persistent_id": "", "id": 116208656, "location_subtype": "", "month": "2024-01"}, {"category": "anti-social-behaviour", "location_type": "Force", "location": {"latitude": "52.630999", "street": {"id": 1737834, "name": "On or near The Newarke"}, "longitude": "-1.140931"}, "context": "", "outcome_status": null, "persistent_id": "", "id": 116209015, "location_subtype": "", "month": "2024-01"}, {"category": "anti-social-behaviour", "location_type": "Force", "location": {"latitude": "52.622852", "street": {"id": 1737331, "name": "On or near Bisley Street"}, "longitude": "-1.150707"}, "context": "", "outcome_status": null, "persistent_id": "", "id": 116208554, "location_subtype": "", "month": "2024-01"}, {"category": "anti-social-behaviour", "location_type": "Force", "location": {"latitude": "52.627703", "street": {"id": 1738945, "name": "On or near The Oval"}, "longitude": "-1.123030"}, "context": "", "outcome_status": null, "persistent_id": "", "id": 116208698, "location_subtype": "", "month": "2024-01"}, {"category": "anti-social-behaviour", "location_type": "Force", "location": {"latitude": "52.616723", "street": {"id": 1738898, "name": "On or near Adderley Road"}, "longitude": "-1.122614"}, "context": "", "outcome_status": null, "persistent_id": "", "id": 116208758, "location_subtype": "", "month": "2024-01"}, {"category": "anti-social-behaviour", "location_type": "Force", "location": {"latitude": "52.632052", "street": {"id": 1737636, "name": "On or near Supermarket"}, "longitude": "-1.146096"}, "context": "", "outcome_status": null, "persistent_id": "", "id": 116208820, "location_subtype": "", "month": "2024-01"}, {"category": "anti-social-behaviour", "location_type": "Force", "location": {"latitude": "52.635555", "street": {"id": 1738528, "name": "On or near Yeoman Lane"}, "longitude": "-1.129626"}, "context": "", "outcome_status": null, "persistent_id": "", "id": 116208896, "location_subtype": "", "month": "2024-01"}, {"category": "anti-social-behaviour", "location_type": "Force", "location": {"latitude": "52.636041", "street": {"id": 1738351, "name": "On or near East Gates"}, "longitude": "-1.133444"}, "context": "", "outcome_status": null, "persistent_id": "", "id": 116208899, "location_subtype": "", "month": "2024-01"}, {"category": "anti-social-behaviour", "location_type": "Force", "location": {"latitude": "52.628462", "street": {"id": 1738792, "name": "On or near De Montfort Square"}, "longitude": "-1.126029"}, "context": "", "outcome_status": null, "persistent_id": "", "id": 116208978, "location_subtype": "", "month": "2024-01"}, {"category": "anti-social-behaviour", "location_type": "Force", "location": {"latitude": "52.634169", "street": {"id": 1738654, "name": "On or near Colton Street"}, "longitude": "-1.128191"}, "context": "", "outcome_status": null, "persistent_id": "", "id": 116209079, "location_subtype": "", "month": "2024-01"}, {"category": "anti-social-behaviour", "location_type": "Force", "location": {"latitude": "52.631121", "street": {"id": 1739564, "name": "On or near Dronfield Street"}, "longitude": "-1.108837"}, "context": "", "outcome_status": null, "persistent_id": "", "id": 116209100, "location_subtype": "", "month": "2024-01"}, {"category": "anti-social-behaviour", "location_type": "Force", "location": {"latitude": "52.636041", "street": {"id": 1738351, "name": "On or near East Gates"}, "longitude": "-1.133444"}, "context": "", "outcome_status": null, "persistent_id": "", "id": 116208664, "location_subtype": "", "month": "2024-01"}, {"category": "anti-social-behaviour", "location_type": "Force", "location": {"latitude": "52.637041", "street": {"id": 1738379, "name": "On or near Parking Area"}, "longitude": "-1.131222"}, "context": "", "outcome_status": null, "persistent_id": "", "id": 116209089, "location_subtype": "", "month": "2024-01"}, {"category": "anti-social-behaviour", "location_type": "Force", "location": {"latitude": "52.636557", "street": {"id": 1737701, "name": "On or near All Saints Road"}, "longitude": "-1.143748"}, "context": "", "outcome_status": null, "persistent_id": "", "id": 116209088, "location_subtype": "", "month": "2024-01"}, {"category": "anti-social-behaviour", "location_type": "Force", "location": {"latitude": "52.623324", "street": {"id": 1737599, "name": "On or near Woodford Road"}, "longitude": "-1.146296"}, "context": "", "outcome_status": null, "persistent_id": "", "id": 116209086, "location_subtype": "", "month": "2024-01"}, {"category": "anti-social-behaviour", "location_type": "Force", "location": {"latitude": "52.636041", "street": {"id": 1738351, "name": "On or near East Gates"}, "longitude": "-1.133444"}, "context": "", "outcome_status": null, "persistent_id": "", "id": 116209077, "location_subtype": "", "month": "2024-01"}, {"category": "anti-social-behaviour", "location_type": "Force", "location": {"latitude": "52.636235", "street": {"id": 1737783, "name": "On or near Blackfriars Street"}, "longitude": "-1.142794"}, "context": "", "outcome_status": null, "persistent_id": "", "id": 116209074, "location_subtype": "", "month": "2024-01"}, {"category": "anti-social-behaviour", "location_type": "Force", "location": {"latitude": "52.632931", "street": {"id": 1738486, "name": "On or near Belvoir Street"}, "longitude": "-1.131038"}, "context": "", "outcome_status": null, "persistent_id": "", "id": 116209069, "location_subtype": "", "month": "2024-01"}, {"category": "anti-social-behaviour", "location_type": "Force", "location": {"latitude": "52.636041", "street": {"id": 1738351, "name": "On or near East Gates"}, "longitude": "-1.133444"}, "context": "", "outcome_status": null, "persistent_id": "", "id": 116209064, "location_subtype": "", "month": "2024-01"}, {"category": "anti-social-behaviour", "location_type": "Force", "location": {"latitude": "52.637556", "street": {"id": 1738177, "name": "On or near St Peters Lane"}, "longitude": "-1.135305"}, "context": "", "outcome_status": null, "persistent_id": "", "id": 116209060, "location_subtype": "", "month": "2024-01"}, {"category": "anti-social-behaviour", "location_type": "Force", "location": {"latitude": "52.639316", "street": {"id": 1738483, "name": "On or near Nightclub"}, "longitude": "-1.131354"}, "context": "", "outcome_status": null, "persistent_id": "", "id": 116209059, "location_subtype": "", "month": "2024-01"}, {"category": "anti-social-behaviour", "location_type": "Force", "location": {"latitude": "52.637031", "street": {"id": 1738550, "name": "On or near Clarence Street"}, "longitude": "-1.129878"}, "context": "", "outcome_status": null, "persistent_id": "", "id": 116209057, "location_subtype": "", "month": "2024-01"}, {"category": "anti-social-behaviour", "location_type": "Force", "location": {"latitude": "52.634996", "street": {"id": 1739182, "name": "On or near Jupiter Close"}, "longitude": "-1.117195"}, "context": "", "outcome_status": null, "persistent_id": "", "id": 116209056, "location_subtype": "", "month": "2024-01"}, {"category": "anti-social-behaviour", "location_type": "Force", "location": {"latitude": "52.623733", "street": {"id": 1737598, "name": "On or near Watkin Road"}, "longitude": "-1.146967"}, "context": "", "outcome_status": null, "persistent_id": "", "id": 116209044, "location_subtype": "", "month": "2024-01"}, {"category": "anti-social-behaviour", "location_type": "Force", "location": {"latitude": "52.637843", "street": {"id": 1738541, "name": "On or near Shopping Area"}, "longitude": "-1.130275"}, "context": "", "outcome_status": null, "persistent_id": "", "id": 116209040, "location_subtype": "", "month": "2024-01"}, {"category": "anti-social-behaviour", "location_type": "Force", "location": {"latitude": "52.636041", "street": {"id": 1738351, "name": "On or near East Gates"}, "longitude": "-1.133444"}, "context": "", "outcome_status": null, "persistent_id": "", "id": 116209038, "location_subtype": "", "month": "2024-01"}, {"category": "anti-social-behaviour", "location_type": "Force", "location": {"latitude": "52.633502", "street": {"id": 1738435, "name": "On or near Bishop Street"}, "longitude": "-1.131662"}, "context": "", "outcome_status": null, "persistent_id": "", "id": 116209037, "location_subtype": "", "month": "2024-01"}, {"category": "anti-social-behaviour", "location_type": "Force", "location": {"latitude": "52.637041", "street": {"id": 1738379, "name": "On or near Parking Area"}, "longitude": "-1.131222"}, "context": "", "outcome_status": null, "persistent_id": "", "id": 116208974, "location_subtype": "", "month": "2024-01"}, {"category": "anti-social-behaviour", "location_type": "Force", "location": {"latitude": "52.632052", "street": {"id": 1737636, "name": "On or near Supermarket"}, "longitude": "-1.146096"}, "context": "", "outcome_status": null, "persistent_id": "", "id": 116208973, "location_subtype": "", "month": "2024-01"}, {"category": "anti-social-behaviour", "location_type": "Force", "location": {"latitude": "52.621821", "street": {"id": 1738041, "name": "On or near Sports/recreation Area"}, "longitude": "-1.138165"}, "context": "", "outcome_status": null, "persistent_id": "", "id": 116208955, "location_subtype": "", "month": "2024-01"}, {"category": "anti-social-behaviour", "location_type": "Force", "location": {"latitude": "52.635078", "street": {"id": 1737968, "name": "On or near St Nicholas Place"}, "longitude": "-1.139462"}, "context": "", "outcome_status": null, "persistent_id": "", "id": 116208951, "location_subtype": "", "month": "2024-01"}, {"category": "anti-social-behaviour", "location_type": "Force", "location": {"latitude": "52.634392", "street": {"id": 1737937, "name": "On or near Parking Area"}, "longitude": "-1.140229"}, "context": "", "outcome_status": null, "persistent_id": "", "id": 116208949, "location_subtype": "", "month": "2024-01"}, {"category": "anti-social-behaviour", "location_type": "Force", "location": {"latitude": "52.634503", "street": {"id": 1737385, "name": "On or near Kate Street"}, "longitude": "-1.149403"}, "context": "", "outcome_status": null, "persistent_id": "", "id": 116208948, "location_subtype": "", "month": "2024-01"}, {"category": "anti-social-behaviour", "location_type": "Force", "location": {"latitude": "52.625551", "street": {"id": 1737260, "name": "On or near Petrol Station"}, "longitude": "-1.152191"}, "context": "", "outcome_status": null, "persistent_id": "", "id": 116208943, "location_subtype": "", "month": "2024-01"}, {"category": "anti-social-behaviour", "location_type": "Force", "location": {"latitude": "52.636041", "street": {"id": 1738351, "name": "On or near East Gates"}, "longitude": "-1.133444"}, "context": "", "outcome_status": null, "persistent_id": "", "id": 116208937, "location_subtype": "", "month": "2024-01"}, {"category": "anti-social-behaviour", "location_type": "Force", "location": {"latitude": "52.639558", "street": {"id": 1738364, "name": "On or near Nightclub"}, "longitude": "-1.132473"}, "context": "", "outcome_status": null, "persistent_id": "", "id": 116208934, "location_subtype": "", "month": "2024-01"}, {"category": "anti-social-behaviour", "location_type": "Force", "location": {"latitude": "52.639558", "street": {"id": 1738364, "name": "On or near Nightclub"}, "longitude": "-1.132473"}, "context": "", "outcome_status": null, "persistent_id": "", "id": 116208928, "location_subtype": "", "month": "2024-01"}, {"category": "anti-social-behaviour", "location_type": "Force", "location": {"latitude": "52.625551", "street": {"id": 1737260, "name": "On or near Petrol Station"}, "longitude": "-1.152191"}, "context": "", "outcome_status": null, "persistent_id": "", "id": 116208923, "location_subtype": "", "month": "2024-01"}, {"category": "anti-social-behaviour", "location_type": "Force", "location": {"latitude": "52.624092", "street": {"id": 1739337, "name": "On or near Mayfield Road"}, "longitude": "-1.113810"}, "context": "", "outcome_status": null, "persistent_id": "", "id": 116208916, "location_subtype": "", "month": "2024-01"}, {"category": "anti-social-behaviour", "location_type": "Force", "location": {"latitude": "52.627703", "street": {"id": 1738945, "name": "On or near The Oval"}, "longitude": "-1.123030"}, "context": "", "outcome_status": null, "persistent_id": "", "id": 116208914, "location_subtype": "", "month": "2024-01"}, {"category": "anti-social-behaviour", "location_type": "Force", "location": {"latitude": "52.627703", "street": {"id": 1738945, "name": "On or near The Oval"}, "longitude": "-1.123030"}, "context": "", "outcome_status": null, "persistent_id": "", "id": 116208910, "location_subtype": "", "month": "2024-01"}, {"category": "anti-social-behaviour", "location_type": "Force", "location": {"latitude": "52.625551", "street": {"id": 1737260, "name": "On or near Petrol Station"}, "longitude": "-1.152191"}, "context": "", "outcome_status": null, "persistent_id": "", "id": 116208909, "location_subtype": "", "month": "2024-01"}, {"category": "anti-social-behaviour", "location_type": "Force", "location": {"latitude": "52.633528", "street": {"id": 1738217, "name": "On or near Berridge Street"}, "longitude": "-1.135207"}, "context": "", "outcome_status": null, "persistent_id": "", "id": 116208906, "location_subtype": "", "month": "2024-01"}, {"category": "anti-social-behaviour", "location_type": "Force", "location": {"latitude": "52.634169", "street": {"id": 1738654, "name": "On or near Colton Street"}, "longitude": "-1.128191"}, "context": "", "outcome_status": null, "persistent_id": "", "id": 116208905, "location_subtype": "", "month": "2024-01"}, {"category": "anti-social-behaviour", "location_type": "Force", "location": {"latitude": "52.625551", "street": {"id": 1737260, "name": "On or near Petrol Station"}, "longitude": "-1.152191"}, "context": "", "outcome_status": null, "persistent_id": "", "id": 116208902, "location_subtype": "", "month": "2024-01"}, {"category": "anti-social-behaviour", "location_type": "Force", "location": {"latitude": "52.637031", "street": {"id": 1738550, "name": "On or near Clarence Street"}, "longitude": "-1.129878"}, "context": "", "outcome_status": null, "persistent_id": "", "id": 116208894, "location_subtype": "", "month": "2024-01"}, {"category": "anti-social-behaviour", "location_type": "Force", "location": {"latitude": "52.627895", "street": {"id": 1737587, "name": "On or near Supermarket"}, "longitude": "-1.146886"}, "context": "", "outcome_status": null, "persistent_id": "", "id": 116208883, "location_subtype": "", "month": "2024-01"}, {"category": "anti-social-behaviour", "location_type": "Force", "location": {"latitude": "52.631353", "street": {"id": 1738221, "name": "On or near Upper Brown Street"}, "longitude": "-1.135324"}, "context": "", "outcome_status": null, "persistent_id": "", "id": 116208880, "location_subtype": "", "month": "2024-01"}, {"category": "anti-social-behaviour", "location_type": "Force", "location": {"latitude": "52.627432", "street": {"id": 1737986, "name": "On or near Jarrom Street"}, "longitude": "-1.138755"}, "context": "", "outcome_status": null, "persistent_id": "", "id": 116208873, "location_subtype": "", "month": "2024-01"}, {"category": "anti-social-behaviour", "location_type": "Force", "location": {"latitude": "52.627535", "street": {"id": 1738829, "name": "On or near Princess Road East"}, "longitude": "-1.124599"}, "context": "", "outcome_status": null, "persistent_id": "", "id": 116208844, "location_subtype": "", "month": "2024-01"}, {"category": "anti-social-behaviour", "location_type": "Force", "location": {"latitude": "52.635066", "street": {"id": 1739289, "name": "On or near Wilson Street"}, "longitude": "-1.114534"}, "context": "", "outcome_status": null, "persistent_id": "", "id": 116208842, "location_subtype": "", "month": "2024-01"}, {"category": "anti-social-behaviour", "location_type": "Force", "location": {"latitude": "52.633317", "street": {"id": 1738721, "name": "On or near Church Street"}, "longitude": "-1.127203"}, "context": "", "outcome_status": null, "persistent_id": "", "id": 116208841, "location_subtype": "", "month": "2024-01"}, {"category": "anti-social-behaviour", "location_type": "Force", "location": {"latitude": "52.634169", "street": {"id": 1738654, "name": "On or near Colton Street"}, "longitude": "-1.128191"}, "context": "", "outcome_status": null, "persistent_id": "", "id": 116208836, "location_subtype": "", "month": "2024-01"}, {"category": "anti-social-behaviour", "location_type": "Force", "location": {"latitude": "52.636041", "street": {"id": 1738351, "name": "On or near East Gates"}, "longitude": "-1.133444"}, "context": "", "outcome_status": null, "persistent_id": "", "id": 116208835, "location_subtype": "", "month": "2024-01"}, {"category": "anti-social-behaviour", "location_type": "Force", "location": {"latitude": "52.625906", "street": {"id": 1739595, "name": "On or near Linton Street"}, "longitude": "-1.108765"}, "context": "", "outcome_status": null, "persistent_id": "", "id": 116208830, "location_subtype": "", "month": "2024-01"}, {"category": "anti-social-behaviour", "location_type": "Force", "location": {"latitude": "52.627535", "street": {"id": 1738829, "name": "On or near Princess Road East"}, "longitude": "-1.124599"}, "context": "", "outcome_status": null, "persistent_id": "", "id": 116208829, "location_subtype": "", "month": "2024-01"}, {"category": "anti-social-behaviour", "location_type": "Force", "location": {"latitude": "52.637101", "street": {"id": 1738524, "name": "On or near Shopping Area"}, "longitude": "-1.130778"}, "context": "", "outcome_status": null, "persistent_id": "", "id": 116208660, "location_subtype": "", "month": "2024-01"}, {"category": "anti-social-behaviour", "location_type": "Force", "location": {"latitude": "52.627703", "street": {"id": 1738945, "name": "On or near The Oval"}, "longitude": "-1.123030"}, "context": "", "outcome_status": null, "persistent_id": "", "id": 116208659, "location_subtype": "", "month": "2024-01"}, {"category": "anti-social-behaviour", "location_type": "Force", "location": {"latitude": "52.636041", "street": {"id": 1738351, "name": "On or near East Gates"}, "longitude": "-1.133444"}, "context": "", "outcome_status": null, "persistent_id": "", "id": 116208823, "location_subtype": "", "month": "2024-01"}, {"category": "anti-social-behaviour", "location_type": "Force", "location": {"latitude": "52.626044", "street": {"id": 1739135, "name": "On or near Abingdon Road"}, "longitude": "-1.115086"}, "context": "", "outcome_status": null, "persistent_id": "", "id": 116208819, "location_subtype": "", "month": "2024-01"}, {"category": "anti-social-behaviour", "location_type": "Force", "location": {"latitude": "52.637041", "street": {"id": 1738379, "name": "On or near Parking Area"}, "longitude": "-1.131222"}, "context": "", "outcome_status": null, "persistent_id": "", "id": 116208816, "location_subtype": "", "month": "2024-01"}, {"category": "anti-social-behaviour", "location_type": "Force", "location": {"latitude": "52.631484", "street": {"id": 1739411, "name": "On or near Donnington Street"}, "longitude": "-1.111637"}, "context": "", "outcome_status": null, "persistent_id": "", "id": 116208805, "location_subtype": "", "month": "2024-01"}, {"category": "anti-social-behaviour", "location_type": "Force", "location": {"latitude": "52.632052", "street": {"id": 1737636, "name": "On or near Supermarket"}, "longitude": "-1.146096"}, "context": "", "outcome_status": null, "persistent_id": "", "id": 116208803, "location_subtype": "", "month": "2024-01"}, {"category": "anti-social-behaviour", "location_type": "Force", "location": {"latitude": "52.632534", "street": {"id": 1738358, "name": "On or near Market Street"}, "longitude": "-1.133232"}, "context": "", "outcome_status": null, "persistent_id": "", "id": 116208798, "location_subtype": "", "month": "2024-01"}, {"category": "anti-social-behaviour", "location_type": "Force", "location": {"latitude": "52.625551", "street": {"id": 1737260, "name": "On or near Petrol Station"}, "longitude": "-1.152191"}, "context": "", "outcome_status": null, "persistent_id": "", "id": 116208797, "location_subtype": "", "month": "2024-01"}, {"category": "anti-social-behaviour", "location_type": "Force", "location": {"latitude": "52.627534", "street": {"id": 1738536, "name": "On or near Newtown Street"}, "longitude": "-1.130553"}, "context": "", "outcome_status": null, "persistent_id": "", "id": 116208658, "location_subtype": "", "month": "2024-01"}, {"category": "anti-social-behaviour", "location_type": "Force", "location": {"latitude": "52.636041", "street": {"id": 1738351, "name": "On or near East Gates"}, "longitude": "-1.133444"}, "context": "", "outcome_status": null, "persistent_id": "", "id": 116208793, "location_subtype": "", "month": "2024-01"}, {"category": "anti-social-behaviour", "location_type": "Force", "location": {"latitude": "52.632052", "street": {"id": 1737636, "name": "On or near Supermarket"}, "longitude": "-1.146096"}, "context": "", "outcome_status": null, "persistent_id": "", "id": 116208792, "location_subtype": "", "month": "2024-01"}, {"category": "anti-social-behaviour", "location_type": "Force", "location": {"latitude": "52.627703", "street": {"id": 1738945, "name": "On or near The Oval"}, "longitude": "-1.123030"}, "context": "", "outcome_status": null, "persistent_id": "", "id": 116208788, "location_subtype": "", "month": "2024-01"}, {"category": "anti-social-behaviour", "location_type": "Force", "location": {"latitude": "52.625820", "street": {"id": 1737867, "name": "On or near Windermere Street"}, "longitude": "-1.140899"}, "context": "", "outcome_status": null, "persistent_id": "", "id": 116208784, "location_subtype": "", "month": "2024-01"}, {"category": "anti-social-behaviour", "location_type": "Force", "location": {"latitude": "52.640498", "street": {"id": 1737983, "name": "On or near St Margaret's Street"}, "longitude": "-1.136799"}, "context": "", "outcome_status": null, "persistent_id": "", "id": 116208776, "location_subtype": "", "month": "2024-01"}, {"category": "anti-social-behaviour", "location_type": "Force", "location": {"latitude": "52.630693", "street": {"id": 1738552, "name": "On or near Wellington Street"}, "longitude": "-1.129885"}, "context": "", "outcome_status": null, "persistent_id": "", "id": 116208655, "location_subtype": "", "month": "2024-01"}, {"category": "anti-social-behaviour", "location_type": "Force", "location": {"latitude": "52.636041", "street": {"id": 1738351, "name": "On or near East Gates"}, "longitude": "-1.133444"}, "context": "", "outcome_status": null, "persistent_id": "", "id": 116208654, "location_subtype": "", "month": "2024-01"}, {"category": "anti-social-behaviour", "location_type": "Force", "location": {"latitude": "52.625551", "street": {"id": 1737260, "name": "On or near Petrol Station"}, "longitude": "-1.152191"}, "context": "", "outcome_status": null, "persistent_id": "", "id": 116208653, "location_subtype": "", "month": "2024-01"}, {"category": "anti-social-behaviour", "location_type": "Force", "location": {"latitude": "52.635486", "street": {"id": 1738632, "name": "On or near Yeoman Street"}, "longitude": "-1.128741"}, "context": "", "outcome_status": null, "persistent_id": "", "id": 116208652, "location_subtype": "", "month": "2024-01"}, {"category": "anti-social-behaviour", "location_type": "Force", "location": {"latitude": "52.627379", "street": {"id": 1738753, "name": "On or near De Montfort Street"}, "longitude": "-1.125445"}, "context": "", "outcome_status": null, "persistent_id": "", "id": 116208763, "location_subtype": "", "month": "2024-01"}, {"category": "anti-social-behaviour", "location_type": "Force", "location": {"latitude": "52.627903", "street": {"id": 1739501, "name": "On or near Conifer Close"}, "longitude": "-1.110084"}, "context": "", "outcome_status": null, "persistent_id": "", "id": 116209025, "location_subtype": "", "month": "2024-01"}, {"category": "anti-social-behaviour", "location_type": "Force", "location": {"latitude": "52.628313", "street": {"id": 1738497, "name": "On or near Turner Street"}, "longitude": "-1.131351"}, "context": "", "outcome_status": null, "persistent_id": "", "id": 116209023, "location_subtype": "", "month": "2024-01"}, {"category": "anti-social-behaviour", "location_type": "Force", "location": {"latitude": "52.628313", "street": {"id": 1738497, "name": "On or near Turner Street"}, "longitude": "-1.131351"}, "context": "", "outcome_status": null, "persistent_id": "", "id": 116209020, "location_subtype": "", "month": "2024-01"}, {"category": "anti-social-behaviour", "location_type": "Force", "location": {"latitude": "52.627381", "street": {"id": 1738616, "name": "On or near Regent Road"}, "longitude": "-1.126952"}, "context": "", "outcome_status": null, "persistent_id": "", "id": 116209017, "location_subtype": "", "month": "2024-01"}, {"category": "anti-social-behaviour", "location_type": "Force", "location": {"latitude": "52.618429", "street": {"id": 1739131, "name": "On or near Edward Road"}, "longitude": "-1.118666"}, "context": "", "outcome_status": null, "persistent_id": "", "id": 116209004, "location_subtype": "", "month": "2024-01"}, {"category": "anti-social-behaviour", "location_type": "Force", "location": {"latitude": "52.636041", "street": {"id": 1738351, "name": "On or near East Gates"}, "longitude": "-1.133444"}, "context": "", "outcome_status": null, "persistent_id": "", "id": 116208999, "location_subtype": "", "month": "2024-01"}, {"category": "anti-social-behaviour", "location_type": "Force", "location": {"latitude": "52.632805", "street": {"id": 1738842, "name": "On or near Campbell Street"}, "longitude": "-1.124819"}, "context": "", "outcome_status": null, "persistent_id": "", "id": 116208998, "location_subtype": "", "month": "2024-01"}, {"category": "anti-social-behaviour", "location_type": "Force", "location": {"latitude": "52.636041", "street": {"id": 1738351, "name": "On or near East Gates"}, "longitude": "-1.133444"}, "context": "", "outcome_status": null, "persistent_id": "", "id": 116208648, "location_subtype": "", "month": "2024-01"}, {"category": "anti-social-behaviour", "location_type": "Force", "location": {"latitude": "52.638358", "street": {"id": 1738578, "name": "On or near Parking Area"}, "longitude": "-1.129437"}, "context": "", "outcome_status": null, "persistent_id": "", "id": 116208646, "location_subtype": "", "month": "2024-01"}, {"category": "anti-social-behaviour", "location_type": "Force", "location": {"latitude": "52.636041", "street": {"id": 1738351, "name": "On or near East Gates"}, "longitude": "-1.133444"}, "context": "", "outcome_status": null, "persistent_id": "", "id": 116208981, "location_subtype": "", "month": "2024-01"}, {"category": "anti-social-behaviour", "location_type": "Force", "location": {"latitude": "52.628349", "street": {"id": 1739483, "name": "On or near Roslyn Street"}, "longitude": "-1.110769"}, "context": "", "outcome_status": null, "persistent_id": "", "id": 116208749, "location_subtype": "", "month": "2024-01"}, {"category": "anti-social-behaviour", "location_type": "Force", "location": {"latitude": "52.636041", "street": {"id": 1738351, "name": "On or near East Gates"}, "longitude": "-1.133444"}, "context": "", "outcome_status": null, "persistent_id": "", "id": 116208747, "location_subtype": "", "month": "2024-01"}, {"category": "anti-social-behaviour", "location_type": "Force", "location": {"latitude": "52.634409", "street": {"id": 1738338, "name": "On or near Shopping Area"}, "longitude": "-1.133652"}, "context": "", "outcome_status": null, "persistent_id": "", "id": 116208726, "location_subtype": "", "month": "2024-01"}, {"category": "anti-social-behaviour", "location_type": "Force", "location": {"latitude": "52.632052", "street": {"id": 1737636, "name": "On or near Supermarket"}, "longitude": "-1.146096"}, "context": "", "outcome_status": null, "persistent_id": "", "id": 116208725, "location_subtype": "", "month": "2024-01"}, {"category": "anti-social-behaviour", "location_type": "Force", "location": {"latitude": "52.633317", "street": {"id": 1738721, "name": "On or near Church Street"}, "longitude": "-1.127203"}, "context": "", "outcome_status": null, "persistent_id": "", "id": 116208720, "location_subtype": "", "month": "2024-01"}, {"category": "anti-social-behaviour", "location_type": "Force", "location": {"latitude": "52.630803", "street": {"id": 1737674, "name": "On or near Bede Street"}, "longitude": "-1.144983"}, "context": "", "outcome_status": null, "persistent_id": "", "id": 116208718, "location_subtype": "", "month": "2024-01"}, {"category": "anti-social-behaviour", "location_type": "Force", "location": {"latitude": "52.630623", "street": {"id": 1739386, "name": "On or near Twycross Street"}, "longitude": "-1.113087"}, "context": "", "outcome_status": null, "persistent_id": "", "id": 116208713, "location_subtype": "", "month": "2024-01"}, {"category": "anti-social-behaviour", "location_type": "Force", "location": {"latitude": "52.637041", "street": {"id": 1738379, "name": "On or near Parking Area"}, "longitude": "-1.131222"}, "context": "", "outcome_status": null, "persistent_id": "", "id": 116208709, "location_subtype": "", "month": "2024-01"}, {"category": "anti-social-behaviour", "location_type": "Force", "location": {"latitude": "52.635528", "street": {"id": 1738700, "name": "On or near Theatre/concert Hall"}, "longitude": "-1.127553"}, "context": "", "outcome_status": null, "persistent_id": "", "id": 116208706, "location_subtype": "", "month": "2024-01"}, {"category": "anti-social-behaviour", "location_type": "Force", "location": {"latitude": "52.635528", "street": {"id": 1738700, "name": "On or near Theatre/concert Hall"}, "longitude": "-1.127553"}, "context": "", "outcome_status": null, "persistent_id": "", "id": 116208704, "location_subtype": "", "month": "2024-01"}, {"category": "anti-social-behaviour", "location_type": "Force", "location": {"latitude": "52.636041", "street": {"id": 1738351, "name": "On or near East Gates"}, "longitude": "-1.133444"}, "context": "", "outcome_status": null, "persistent_id": "", "id": 116208694, "location_subtype": "", "month": "2024-01"}, {"category": "anti-social-behaviour", "location_type": "Force", "location": {"latitude": "52.627703", "street": {"id": 1738945, "name": "On or near The Oval"}, "longitude": "-1.123030"}, "context": "", "outcome_status": null, "persistent_id": "", "id": 116208693, "location_subtype": "", "month": "2024-01"}, {"category": "anti-social-behaviour", "location_type": "Force", "location": {"latitude": "52.639872", "street": {"id": 1739117, "name": "On or near Parking Area"}, "longitude": "-1.118959"}, "context": "", "outcome_status": null, "persistent_id": "", "id": 116208691, "location_subtype": "", "month": "2024-01"}, {"category": "anti-social-behaviour", "location_type": "Force", "location": {"latitude": "52.625551", "street": {"id": 1737260, "name": "On or near Petrol Station"}, "longitude": "-1.152191"}, "context": "", "outcome_status": null, "persistent_id": "", "id": 116208871, "location_subtype": "", "month": "2024-01"}, {"category": "anti-social-behaviour", "location_type": "Force", "location": {"latitude": "52.621217", "street": {"id": 1737965, "name": "On or near Pavilion Close"}, "longitude": "-1.138404"}, "context": "", "outcome_status": null, "persistent_id": "", "id": 116208682, "location_subtype": "", "month": "2024-01"}, {"category": "anti-social-behaviour", "location_type": "Force", "location": {"latitude": "52.634996", "street": {"id": 1739182, "name": "On or near Jupiter Close"}, "longitude": "-1.117195"}, "context": "", "outcome_status": null, "persistent_id": "", "id": 116208867, "location_subtype": "", "month": "2024-01"}, {"category": "anti-social-behaviour", "location_type": "Force", "location": {"latitude": "52.635399", "street": {"id": 1738303, "name": "On or near Shopping Area"}, "longitude": "-1.134107"}, "context": "", "outcome_status": null, "persistent_id": "", "id": 116208673, "location_subtype": "", "month": "2024-01"}, {"category": "anti-social-behaviour", "location_type": "Force", "location": {"latitude": "52.627137", "street": {"id": 1739115, "name": "On or near St Albans Road"}, "longitude": "-1.117058"}, "context": "", "outcome_status": null, "persistent_id": "", "id": 116208672, "location_subtype": "", "month": "2024-01"}, {"category": "anti-social-behaviour", "location_type": "Force", "location": {"latitude": "52.642883", "street": {"id": 1738841, "name": "On or near Calgary Road"}, "longitude": "-1.124914"}, "context": "", "outcome_status": null, "persistent_id": "", "id": 116208669, "location_subtype": "", "month": "2024-01"}, {"category": "anti-social-behaviour", "location_type": "Force", "location": {"latitude": "52.634169", "street": {"id": 1738654, "name": "On or near Colton Street"}, "longitude": "-1.128191"}, "context": "", "outcome_status": null, "persistent_id": "", "id": 116208668, "location_subtype": "", "month": "2024-01"}, {"category": "anti-social-behaviour", "location_type": "Force", "location": {"latitude": "52.632746", "street": {"id": 1738674, "name": "On or near Northampton Street"}, "longitude": "-1.127791"}, "context": "", "outcome_status": null, "persistent_id": "", "id": 116208853, "location_subtype": "", "month": "2024-01"}, {"category": "anti-social-behaviour", "location_type": "Force", "location": {"latitude": "52.631624", "street": {"id": 1738751, "name": "On or near Station Street"}, "longitude": "-1.125641"}, "context": "", "outcome_status": null, "persistent_id": "", "id": 116208627, "location_subtype": "", "month": "2024-01"}, {"category": "anti-social-behaviour", "location_type": "Force", "location": {"latitude": "52.627703", "street": {"id": 1738945, "name": "On or near The Oval"}, "longitude": "-1.123030"}, "context": "", "outcome_status": null, "persistent_id": "", "id": 116208626, "location_subtype": "", "month": "2024-01"}, {"category": "anti-social-behaviour", "location_type": "Force", "location": {"latitude": "52.627137", "street": {"id": 1739115, "name": "On or near St Albans Road"}, "longitude": "-1.117058"}, "context": "", "outcome_status": null, "persistent_id": "", "id": 116208570, "location_subtype": "", "month": "2024-01"}, {"category": "anti-social-behaviour", "location_type": "Force", "location": {"latitude": "52.624402", "street": {"id": 1739504, "name": "On or near Devana Road"}, "longitude": "-1.109534"}, "context": "", "outcome_status": null, "persistent_id": "", "id": 116208564, "location_subtype": "", "month": "2024-01"}, {"category": "anti-social-behaviour", "location_type": "Force", "location": {"latitude": "52.624402", "street": {"id": 1739504, "name": "On or near Devana Road"}, "longitude": "-1.109534"}, "context": "", "outcome_status": null, "persistent_id": "", "id": 116208557, "location_subtype": "", "month": "2024-01"}, {"category": "anti-social-behaviour", "location_type": "Force", "location": {"latitude": "52.632052", "street": {"id": 1737636, "name": "On or near Supermarket"}, "longitude": "-1.146096"}, "context": "", "outcome_status": null, "persistent_id": "", "id": 116208620, "location_subtype": "", "month": "2024-01"}, {"category": "anti-social-behaviour", "location_type": "Force", "location": {"latitude": "52.634503", "street": {"id": 1737385, "name": "On or near Kate Street"}, "longitude": "-1.149403"}, "context": "", "outcome_status": null, "persistent_id": "", "id": 116208619, "location_subtype": "", "month": "2024-01"}, {"category": "anti-social-behaviour", "location_type": "Force", "location": {"latitude": "52.635078", "street": {"id": 1737968, "name": "On or near St Nicholas Place"}, "longitude": "-1.139462"}, "context": "", "outcome_status": null, "persistent_id": "", "id": 116208618, "location_subtype": "", "month": "2024-01"}, {"category": "anti-social-behaviour", "location_type": "Force", "location": {"latitude": "52.626768", "street": {"id": 1738882, "name": "On or near Further/higher Educational Building"}, "longitude": "-1.123078"}, "context": "", "outcome_status": null, "persistent_id": "", "id": 116208610, "location_subtype": "", "month": "2024-01"}, {"category": "anti-social-behaviour", "location_type": "Force", "location": {"latitude": "52.642883", "street": {"id": 1738841, "name": "On or near Calgary Road"}, "longitude": "-1.124914"}, "context": "", "outcome_status": null, "persistent_id": "", "id": 116208606, "location_subtype": "", "month": "2024-01"}, {"category": "anti-social-behaviour", "location_type": "Force", "location": {"latitude": "52.636041", "street": {"id": 1738351, "name": "On or near East Gates"}, "longitude": "-1.133444"}, "context": "", "outcome_status": null, "persistent_id": "", "id": 116208603, "location_subtype": "", "month": "2024-01"}, {"category": "anti-social-behaviour", "location_type": "Force", "location": {"latitude": "52.628462", "street": {"id": 1738792, "name": "On or near De Montfort Square"}, "longitude": "-1.126029"}, "context": "", "outcome_status": null, "persistent_id": "", "id": 116208602, "location_subtype": "", "month": "2024-01"}, {"category": "anti-social-behaviour", "location_type": "Force", "location": {"latitude": "52.637041", "street": {"id": 1738379, "name": "On or near Parking Area"}, "longitude": "-1.131222"}, "context": "", "outcome_status": null, "persistent_id": "", "id": 116208589, "location_subtype": "", "month": "2024-01"}, {"category": "anti-social-behaviour", "location_type": "Force", "location": {"latitude": "52.636041", "street": {"id": 1738351, "name": "On or near East Gates"}, "longitude": "-1.133444"}, "context": "", "outcome_status": null, "persistent_id": "", "id": 116208588, "location_subtype": "", "month": "2024-01"}, {"category": "anti-social-behaviour", "location_type": "Force", "location": {"latitude": "52.634169", "street": {"id": 1738654, "name": "On or near Colton Street"}, "longitude": "-1.128191"}, "context": "", "outcome_status": null, "persistent_id": "", "id": 116208738, "location_subtype": "", "month": "2024-01"}, {"category": "anti-social-behaviour", "location_type": "Force", "location": {"latitude": "52.634169", "street": {"id": 1738654, "name": "On or near Colton Street"}, "longitude": "-1.128191"}, "context": "", "outcome_status": null, "persistent_id": "", "id": 116208737, "location_subtype": "", "month": "2024-01"}, {"category": "anti-social-behaviour", "location_type": "Force", "location": {"latitude": "52.636041", "street": {"id": 1738351, "name": "On or near East Gates"}, "longitude": "-1.133444"}, "context": "", "outcome_status": null, "persistent_id": "", "id": 116208731, "location_subtype": "", "month": "2024-01"}]